test/OpenSpaceToolkit/Astrodynamics/Access/Generator/ComputeAccesses/Scenario 3.csv

"Start Time (UTCG)","Min Range Time (UTCG)","Stop Time (UTCG)","Duration (sec)"
6 Sep 2018 08:59:57.312249882,6 Sep 2018 09:06:06.227965502,6 Sep 2018 09:12:09.717732097,732.405482215
6 Sep 2018 10:35:27.899468640,6 Sep 2018 10:41:27.942284070,6 Sep 2018 10:47:24.460925856,716.561457216
6 Sep 2018 12:13:34.385829491,6 Sep 2018 12:15:31.067852771,6 Sep 2018 12:17:25.279264087,230.893434596
6 Sep 2018 18:22:15.431340560,6 Sep 2018 18:23:42.016950675,6 Sep 2018 18:25:14.717905927,179.286565367
6 Sep 2018 19:51:54.778100242,6 Sep 2018 19:57:43.706720836,6 Sep 2018 20:03:39.479630065,704.701529823
6 Sep 2018 21:27:04.077472626,6 Sep 2018 21:33:03.910282554,6 Sep 2018 21:39:12.309212026,728.231739400
