test/Library/Astrodynamics/Access/Generator/AerRanges/Scenario 1.csv

"Start Time (UTCG)","Min Range Time (UTCG)","Stop Time (UTCG)","Duration (sec)"
1 Jan 2018 09:40:27.566466852,1 Jan 2018 09:41:04.307722805,1 Jan 2018 09:41:41.613231772,74.046764920
1 Jan 2018 22:40:24.702439328,1 Jan 2018 22:41:02.087393152,1 Jan 2018 22:41:38.911294097,74.208854770
6 Jan 2018 09:40:39.857959805,6 Jan 2018 09:41:16.626689881,6 Jan 2018 09:41:53.959456954,74.101497149
6 Jan 2018 22:40:37.048682919,6 Jan 2018 22:41:14.406681574,6 Jan 2018 22:41:51.203786955,74.155104036
